"collection_no","record_type","formation","lng","lat","collection_name","collection_subset","collection_aka","n_occs","early_interval","late_interval","max_ma","min_ma","reference_no"
"11803","col","","35.049999","32.716667","Tabun Cave Level C & D","","","1","Late Pleistocene","","0.126","0.0117","10604"
"13066","col","","-84.800003","34.200001","Ladd's Quarry","","Ladd's Lime Kiln","1","Pleistocene","","2.588","0.0117","10272"
"13293","col","","111.566666","22.766666","Xiashan Cave, lower part (Guangdong Province)","","","2","Middle Pleistocene","Late Pleistocene","0.781","0.0117","4412"
"13456","col","Babladanga","87.000000","23.500000","Bankura","","","1","Late Pleistocene","Holocene","0.126","0","6077"
"13738","col","","116.150002","-8.633300","Wajak Cave Mammal Fauna","","","1","Holocene","","0.0117","0","6145"
"20166","col","Kingsdown","-100.477097","37.044701","Butler Spring (KU Locality 7)","","Cragin Quarry, in part","1","Irvingtonian","","1.8","0.3","3081"
"20283","col","Tacubaya","-102.300003","21.799999","Cedazo","","Arroyo Cedazo; Arroyo San Francisco","2","Irvingtonian","","1.8","0.3","2607"
"20285","col","""Chapala shorelake"" Beds","-103.199997","20.299999","Chapala","","","1","Irvingtonian","","1.8","0.3","1482"
"20286","col","","-79.300003","38.700001","Cheetah Room","","","1","Irvingtonian","","1.8","0.3","2875"
"20289","col","","-82.070274","28.799168","Coleman IIA","","","1","Irvingtonian","","1.8","0.3","2436"
"20290","col","","-93.199997","36.000000","Conard Fissure","","","1","Irvingtonian","","1.8","0.3","1628"
"20295","col","Kingsdown","-100.300003","37.200001","Cragin Quarry Locality 1","","Big Springs Loc. 1; KU Locality 6; USGS 21274","1","Irvingtonian","","1.8","0.3","1907"
"20302","col","","-78.699997","39.599998","Cumberland Cave","","","3","Irvingtonian","","1.8","0.3","39868"
"20307","col","","-118.500000","47.000000","Delight","","","1","Irvingtonian","","1.8","0.3","1558"
"20322","col","","-114.500000","31.700001","El Golfo de Santa Clara","","","1","Blancan","","4.9","1.8","2245"
"20335","col","","-117.000000","34.799999","Fort Irwin","","Artillery Range Number 10; SBCM 1.152.2<br>DUPLICATE REF 2018 or 2019","1","Irvingtonian","Rancholabrean","1.8","0.012","2018"
"20347","col","","-102.500000","42.700001","Gordon Fossil Quarry (UNSM Sd-5)","","Gordon Quarry West; UNSM Sh-5","1","Irvingtonian","","1.8","0.3","1916"
"20354","col","","-77.199997","39.799999","Hanover Quarry No. 1 Fissure","","","1","Irvingtonian","","1.8","0.3","1727"
"20415","col","","-82.599998","29.400000","McLeod Limerock Mine","","","1","Irvingtonian","","1.8","0.3","2615"
"20479","col","","-75.300003","40.200001","Port Kennedy Cave","","","1","Irvingtonian","","1.8","0.3","1628"
"20491","col","","-82.300003","29.100000","Reddick IA","","","1","Rancholabrean","","0.3","0.012","3580"
"20499","col","","-117.500000","43.599998","Rome Beds","","","1","Irvingtonian","","1.8","0.3","2499"
"20520","col","","-82.599998","29.700001","Santa Fe River IIA","","","2","Irvingtonian","","1.8","0.3","3567"
"20533","col","Good Creek","-99.800003","34.000000","Smith Ranch (Good Creek)","","","1","Irvingtonian","","1.8","0.3","1302"
"20569","col","American Falls Lake Bed E","-112.900002","42.799999","American Falls Reservoir","","","1","Late Pleistocene","","0.126","0.0117","1936"
"20573","col","Wicomico","-82.416664","29.600000","Arredondo IIA","","","1","Late Pleistocene","","0.126","0.0117","3580"
"20576","col","","-110.199997","50.900002","Bindloss","","","1","Late Pleistocene","","0.126","0.0117","1785"
"20593","col","","-82.099998","29.799999","Haile VIIA","","","1","Late Pleistocene","","0.126","0.0117","3567"
"20600","col","","-86.500000","39.000000","Harrodsburg Crevice","","","1","Late Pleistocene","","0.126","0.0117","2727"
"20608","col","","-82.300003","29.100000","Kendrick IA","","","1","Late Pleistocene","","0.126","0.0117","3567"
"20615","col","","-110.699997","50.099998","Medicine Hat Unit XIII","","","1","Late Pleistocene","","0.126","0.0117","1200"
"20639","col","San Pedro Sand","-118.000000","34.000000","San Pedro Lumber Yard [San Pedro Sand]","","San Pedro Lumber Company, Hill number 48), San Pedro: LACM 1026, 1057 (? = LACM 187); (? UCMP 2047)","1","Late Pleistocene","","0.126","0.0117","2018"
"20647","col","","-82.599998","29.400000","Waccasassa River VI","","","1","Late Pleistocene","","0.126","0.0117","3567"
"21276","col","","36.167000","-1.767000","Lainyamok - surface","","ETE Locality 72, Lainyamok - surface, ","2","Middle Pleistocene","Late Pleistocene","0.781","0.0117","4430"
"21277","col","","36.167000","-1.767000","Lainyamok - excavation","","ETE Locality 73, Lainyamok - excavation, ","1","Middle Pleistocene","Late Pleistocene","0.781","0.0117","4430"
"21442","col","Koobi Fora","36.275002","4.309000","East Turkana - Area 1 - General","","ETE Locality 255, Area 1 - General, ","1","Pliocene","Pleistocene","5.333","0.0117","4760"
"21451","col","Koobi Fora","36.242001","4.275000","East Turkana - Area 6 - General","","ETE Locality 265, Area 6 - General, ","1","Pliocene","Pleistocene","5.333","0.0117","4469"
"21687","col","","-60.000000","-2.500000","Manaus","","ETE Locality 505, Manaus, ","1","Holocene","","0.0117","0","4787"
"21689","col","","-71.366699","-11.900000","Cocha Cashu Biological Station","","ETE Locality 507, Cocha Cashu Biological Station, ","1","Holocene","","0.0117","0","4790"
"21690","col","","35.000000","-2.416700","Serengeti National Park","","ETE Locality 508, Serengeti National Park, ","2","Holocene","","0.0117","0","4792"
"21691","col","","-79.849998","9.150000","Barro Colorado Island","","ETE Locality 509, Barro Colorado Island, ","1","Holocene","","0.0117","0","4796"
"21693","col","","28.666700","-24.600000","Nylsrley Provincial Nature Res","","ETE Locality 511, Nylsrley Provincial Nature Res, ","2","Holocene","","0.0117","0","4805"
"21695","col","","19.366699","-34.533298","Die Kelders 1","","ETE Locality 513, Die Kelders 1, ","2","Pleistocene","","2.588","0.0117","4808"
"21709","col","","18.433300","-33.666698","Melkbos","","ETE Locality 527, Melkbos, ","2","Late Pleistocene","","0.126","0.0117","37332"
"21711","col","","18.233299","-33.116699","Elandsfontein","","ETE Locality 529, Elandsfontein, ","1","Pleistocene","Holocene","2.588","0","4809"
"21755","col","USNO","36.166698","5.325000","USNO - Brown Sands","","ETE Locality 573, USNO - Brown Sands, ","1","Pliocene","","5.333","2.588","9358"
"21790","col","Vogel River Series","35.206902","-3.198600","Laetoli - Loc. 16","","ETE Locality 608, Laetoli - Loc. 16, ","1","Piacenzian","","3.6","2.588","4451"
"21791","col","Sterkfontein","27.733299","-26.016701","Sterkfontein - Member 4","","ETE Locality 609, Lower Breccia, Sterkfontein - Member 4, ","2","Pliocene","Calabrian","5.333","0.781","4867"
"21798","col","Vogel River Series","35.208302","-3.215300","Laetoli - Loc. 6","","ETE Locality 616, Laetoli - Loc. 6, ","1","Piacenzian","","3.6","2.588","4451"
"21802","col","Vogel River Series","35.216702","-3.201400","Laetoli - Loc. 4","","ETE Locality 620, Laetoli - Loc. 4, ","1","Piacenzian","","3.6","2.588","4451"
"21806","col","Vogel River Series","35.201401","-3.248600","Laetoli - Loc. 10E","","ETE Locality 624, Laetoli - Loc. 10E, ","1","Piacenzian","","3.6","2.588","4451"
"21807","col","Vogel River Series","35.183300","-3.240300","Laetoli - Loc. 9S","","ETE Locality 625, Laetoli - Loc. 9S, ","1","Piacenzian","","3.6","2.588","4451"
"21811","col","Vogel River Series","35.213902","-3.212500","Laetoli - Loc. 11","","ETE Locality 629, Laetoli - Loc. 11, ","1","Piacenzian","","3.6","2.588","4451"
"21813","col","Vogel River Series","35.188900","-3.244400","Laetoli - Loc. 9S","","ETE Locality 631, Laetoli - Loc. 9S, ","1","Piacenzian","","3.6","2.588","4451"
"21821","col","Sterkfontein","27.733601","-26.016899","Sterkfontein - Member 2","","ETE Locality 639, Sterkfontein - Member 2, ","1","Pliocene","","5.333","2.588","4867"
"21822","col","Sterkfontein","27.733601","-26.016701","Sterkfontein - Member 5","","ETE Locality 640, Middle Breccia, Sterkfontein - Member 5, ","1","Calabrian","","1.806","0.781","4867"
"21824","col","Swartkrans","27.720800","-26.016701","Swartkrans - Member 1","","ETE Locality 642, Orange Breccia, Pink Breccia","2","Early Pleistocene","","2.588","0.781","4896"
"21825","col","Swartkrans","27.720800","-26.016701","Swartkrans - Member 2","","ETE Locality 643, Brown Breccia, Swartkrans - Member 2, ","2","Pleistocene","","2.588","0.0117","4892"
"21826","col","Swartkrans","27.720800","-26.016701","Swartkrans - Channel Fill","","ETE Locality 644, Swartkrans - Channel Fill, ","1","Pliocene","Pleistocene","5.333","0.0117","4868"
"21827","col","Swartkrans","27.720800","-26.016701","Swartkrans - SKR Block","","ETE Locality 645, Swartkrans - SKR Block, ","1","Pliocene","","5.333","2.588","4895"
"21828","col","Swartkrans","27.720800","-26.016701","Swartkrans - Member 3","","ETE Locality 646, Fire Member, Swartkrans - Member 3, ","1","Pleistocene","","2.588","0.0117","4888"
"21829","col","Swartkrans","27.720800","-26.016701","Swartkrans - Member 5","","ETE Locality 647, Swartkrans - Member 5, ","1","Pleistocene","","2.588","0.0117","4895"
"21830","col","Vogel River Series","35.206902","-3.204200","Laetoli - Loc. 3","","ETE Locality 648, Laetoli - Loc. 3, ","1","Zanclean","Piacenzian","5.333","2.588","4451"
"21856","col","","5.916700","35.750000","Mugharet el 'Aliya","","ETE Locality 675, Mugharet el 'Aliya, ","2","Pleistocene","Holocene","2.588","0","5211"
"21857","col","","5.916700","35.750000","Mugharet el Khail","","ETE Locality 676, Mugharet el Khail, ","1","Pleistocene","Holocene","2.588","0","5212"
"21859","col","","5.916700","35.750000","Mugharet es Saifiya","","ETE Locality 678, Mugharet es Saifiya, ","1","Pleistocene","Holocene","2.588","0","5212"
"21864","col","","21.583300","32.733299","Hagfet ed Dabba","","ETE Locality 683, Hagfet ed Dabba, ","1","Pleistocene","","2.588","0.0117","5217"
"21893","col","","35.000000","-3.666700","Lake Eyasi","","ETE Locality 712, Lake Eyasi, ","1","Middle Pleistocene","Late Pleistocene","0.781","0.0117","5226"
"21894","col","","31.933300","-14.402200","Makwe Rock Shelter","","ETE Locality 713, Makwe Rock Shelter, ","1","Holocene","","0.0117","0","5210"
"21896","col","","23.033300","-28.205601","Doornfontein 1","","ETE Locality 715, Doornfontein 1, ","1","Holocene","","0.0117","0","5227"
"21912","col","","25.866699","-30.233299","Riversmead Shelter","","ETE Locality 731, Riversmead Shelter, ","1","Holocene","","0.0117","0","5214"
"21916","col","","24.400000","-34.099998","Klasies River Mouth Main Site","","ETE Locality 735, Klasies River Mouth Main Site, ","1","Pleistocene","","2.588","0.0117","5235"
"21918","col","","24.400000","-34.099998","Klasies River Mouth Cave 1 LSA","","ETE Locality 737, Klasies River Mouth Cave 1 LSA, ","1","Holocene","","0.0117","0","5234"
"21922","col","","18.833300","-33.383301","Kasteelberg Midden B","","ETE Locality 741, Kasteelberg Midden B, ","1","Holocene","","0.0117","0","5236"
"21925","col","","31.416700","-26.416700","Mlawula","","ETE Locality 744, Mlawula, ","1","Pleistocene","Holocene","2.588","0","5237"
"21929","col","","17.950001","-33.023102","Sea Harvest Site","","ETE Locality 748, Sea Harvest Site, ","2","Pleistocene","","2.588","0.0117","5238"
"21931","col","","18.683300","-34.083302","Swartklip 1","","ETE Locality 750, Swartklip 1, ","2","Pleistocene","","2.588","0.0117","5241"
"21933","col","","36.416698","-0.716700","Naivasha Railway Shelter","","ETE Locality 752, Naivasha Railway Shelter, ","1","Holocene","","0.0117","0","5243"
"21940","col","","25.500000","-30.666700","Blydefontein Shelter","","ETE Locality 759, Blydefontein Shelter, ","1","Holocene","","0.0117","0","5214"
"21943","col","","27.416700","-29.666700","Tienfontein 2","","ETE Locality 762, Tienfontein 2, ","1","Holocene","","0.0117","0","5214"
"21948","col","","22.183300","-33.533298","Boomplas Cave","","ETE Locality 767, Boomplas Cave, ","1","Pleistocene","Holocene","2.588","0","5246"
"21949","col","","31.983299","-27.016701","Border Cave","","ETE Locality 768, Border Cave, ","1","Pleistocene","Holocene","2.588","0","5248"
"21950","col","","21.866699","-33.511101","Buffelskloof","","ETE Locality 769, Buffelskloof, ","1","Pleistocene","Holocene","2.588","0","5249"
"21951","col","","19.466700","-34.583302","Byeneskranskop Cave","","ETE Locality 770, Byeneskranskop Cave, ","1","Pleistocene","Holocene","2.588","0","5250"
"21953","col","","18.000000","-33.000000","Duinefontein 2","","ETE Locality 772, Duinefontein 2, ","1","Pleistocene","","2.588","0.0117","5252"
"21954","col","","18.250000","-33.083302","Elandsfontein (Cutting 10)","","ETE Locality 773, Elandsfontein (Cutting 10), ","1","Pleistocene","","2.588","0.0117","5232"
"21956","col","","24.616699","-27.616699","Equus Cave","","ETE Locality 775, Equus Cave, ","2","Pleistocene","","2.588","0.0117","5255"
"21957","col","","25.650000","-33.599998","Heuningneskrans Shelter","","ETE Locality 776, Heuningneskrans Shelter, ","1","Pleistocene","Holocene","2.588","0","5237"
"21961","col","","27.721100","-26.016899","Plovers Lake","","ETE Locality 780, Plovers Lake, SAM, ","1","Calabrian","","1.806","0.781","5261"
"21963","col","","36.250000","-1.750000","Lainyamok","","ETE Locality 783, Lainyamok, ","2","Pleistocene","","2.588","0.0117","5266"
"22066","col","","29.600000","0.133300","Ishango - N.F.P.","","ETE Locality 887, Niveau fossilifere principal, Ishango - N.F.P., ","1","Pleistocene","Holocene","2.588","0","5321"
"22068","col","","29.600000","0.133300","Ishango - Z. Post-Em.","","ETE Locality 889, Zone post-emersion, Ishango - Z. Post-Em., ","1","Pleistocene","Holocene","2.588","0","5320"
"22074","col","","29.823000","1.374000","Matupi Cave - Unit Matupi II","","ETE Locality 895, Matupi Cave - Unit Matupi II, ","1","Pleistocene","Holocene","2.588","0","5325"
"22272","col","Kapthurin","36.000000","0.500000","East Turkana - Kapthurin fm.","","ETE Locality 1096, Baringo, Kapthurin, Kapthurin fm., ","1","Pleistocene","","2.588","0.0117","5569"
"22329","col","Kromdraai","27.750000","-26.000000","Kromdraai B - Layer 3","","ETE Locality 1153, Kromdraai B - Layer 3, KB, ","1","Pliocene","Pleistocene","5.333","0.0117","4884"
"22331","col","Kromdraai","27.450001","-26.000000","Kromdraai B Mbr. 3","","ETE Locality 1155, Kromdraai B Mbr. 3, KB, ","1","Pliocene","Pleistocene","5.333","0.0117","5600"
"22332","col","Kromdraai","27.750000","-26.000000","Kromndraai B - Layer 1","","ETE Locality 1156, Kromndraai B - Layer 1, KB, ","1","Pliocene","Pleistocene","5.333","0.0117","5531"
"22334","col","Kromdraai","27.750000","-26.000000","Kromdraai A","","ETE Locality 1158, Kromdraai A, KA, ","1","Pliocene","Pleistocene","5.333","0.0117","4885"
"22355","col","Makapansgat","28.950001","-24.200001","Makapansgat - Mbr. 4","","ETE Locality 1179, Cercopithecid Breccia, Pink stony Breccia, Upper Phase IBreccia, Makapansgat - Mbr. 4, ","1","Pliocene","","5.333","2.588","5512"
"22356","col","Makapansgat","28.950001","-24.200001","Makapansgat - Mbr. 3","","ETE Locality 1180, grey marl, Lower Phase I grey breccia, Makapansgat - Mbr. 3, ","1","Pliocene","","5.333","2.588","5537"
"22357","col","Makapansgat","28.950001","-24.200001","Makapansgat - Mbr. 1","","ETE Locality 1181, contaminated travertine, Makapansgat - Mbr. 1, ","1","Pliocene","","5.333","2.588","5538"
"22489","col","","-6.081400","34.435600","Doukkala II","","ETE Locality 1313, Doukkala II, ","2","Pleistocene","","2.588","0.0117","5619"
"22553","col","Hubu","35.966702","-2.333300","Peninj-Basal Sands w/Clay","","ETE Locality 1392, Peninj-Basal Sands w/Clay, ","1","Gelasian","Calabrian","2.588","0.781","5636"
"22578","col","Hubu","35.966702","-2.333300","Peninj-Basal Sands w/Clay","","ETE Locality 1418, Peninj-Basal Sands w/Clay, ","1","Gelasian","Calabrian","2.588","0.781","5636"
"22728","col","","11.383300","50.983299","Sussenborn","","ETE Locality 1607, Sussenborn, ","1","Pleistocene","","2.588","0.0117","5674"
"32050","col","Vogel River Series","35.130001","-3.130000","Laetoli Beds Upper","","Laetolil, Garusi, Southern Serengeti, Vogel River Series","1","Pliocene","","5.333","2.588","4451"
"32052","col","M1, M2, D2, C1, C2 or LR","-7.650000","33.583332","Ahl al Oughlam - general","","Deprez Quarry","1","Late Pliocene","","3.6","2.588","5595"
"32062","col","","22.583332","37.000000","Apidima Cave B","","","1","Middle Pleistocene","Late Pleistocene","0.781","0.0117","8611"
"32082","col","","22.583332","37.000000","Apidima Cave C","","","1","Middle Pleistocene","Late Pleistocene","0.781","0.0117","8611"
"32119","col","","37.049999","-1.466667","Lukenya Hill GvJm 19, 110-80cm","","Lukenya Hill","1","Late Pleistocene","","0.126","0.0117","8626"
"32124","col","","37.049999","-1.466667","Lukenya Hill GvJm 19, 80-0cm","","Lukenya Hill","1","Late Pleistocene","","0.126","0.0117","8626"
"34104","col","","69.966667","38.349998","Lakhuti 2 Main collection","","Lakhuti-2 main","1","Pleistocene","","2.588","0.0117","8649"
"34127","col","","5.600000","50.483334","La Belle-Roche","","Belle Roche, Sprimont","2","Pleistocene","","2.588","0.0117","8650"
"34287","col","","-7.583333","33.583332","Thomas Quarry 1 level G","","Th1-G,\r\nHominid Level,\r\nH. erectus cave ","1","Pleistocene","","2.588","0.0117","9013"
"34330","col","","-7.583333","33.583332","Oulad Hamida 1 - Rhino Cave","","OH1-GDR,\r\nGrotte des Rhinoceros","1","Middle Pleistocene","","0.781","0.126","9013"
"34617","col","Gerakarou","23.150000","40.683334","Gerakarou 1","","GER","1","Villanyian","Pleistocene","3.2","0.0117","9135"
"34782","col","","22.950001","39.366669","Alikes","","Halykes\r\nALK","1","Early Pleistocene","","2.588","0.781","9135"
"34808","col","","22.950001","39.366669","Volos","","VOL","1","Early Pleistocene","Middle Pleistocene","2.588","0.126","9135"
"34809","col","","22.133333","37.400002","Megalopolis","","MGL","1","Pleistocene","","2.588","0.0117","9135"
"34911","col","","-0.866667","37.616669","Cueva Victoria","","","1","Early Pleistocene","","2.588","0.781","9372"
"34916","col","","-3.518889","42.352501","Atapuerca TD4","","Gran Dolina ","1","Early Pleistocene","","2.588","0.781","9374"
"34920","col","","-3.518889","42.352501","Atapuerca TD5","","Gran Dolina","1","Pleistocene","","2.588","0.0117","9351"
"34925","col","","-3.518889","42.352501","Atapuerca TD8","","Gran Dolina","1","Middle Pleistocene","","0.781","0.126","9351"
"34926","col","","3.518889","42.352501","Atapuerca TD10","","Gran Dolina","1","Middle Pleistocene","","0.781","0.126","9351"
"34927","col","","-3.518889","42.352501","Atapuerca TD11","","Gran Dolina","1","Middle Pleistocene","","0.781","0.126","9351"
"34940","col","","-3.500000","53.216702","Pontnewydd Cave","","","1","Pleistocene","","2.588","0.0117","9383"
"35078","col","","-2.533333","37.816666","Huescar 1","","Huéscar 1, Huescar-1","1","Early Pleistocene","Middle Pleistocene","2.588","0.126","9415"
"35369","col","","18.450001","45.866669","Villany locality 3","","Villany-Kalkberg-Nord,\r\nVillány 3,\r\nVillány-Kalkberg-Nord","1","Villanyian","","3.2","2.588","9534"
"35457","col","","18.450001","45.866669","Somssich Hill no. 2","","Somssichhegy 2","1","Early Pleistocene","","2.588","0.781","9534"
"35472","col","","20.533333","48.049999","Kovesvarad","","Kövesvárad","1","Middle Pleistocene","","0.781","0.126","9534"
"35476","col","","20.433332","48.216667","Uppony Rock Shelter 1, layer 10","","Uppony 1, level 10","1","Middle Pleistocene","","0.781","0.126","9534"
"36134","col","","12.300000","41.883331","Layer 4, Sedia del Diavolo, Rome","","","1","Middle Pleistocene","","0.781","0.126","9695"
"36206","col","","11.316667","51.400002","Voigtstedt bei Sangerhausen, Lehmzone","","Voigtstedt Loam zone,\r\nVoigtstedt clay level","1","Middle Pleistocene","","0.781","0.126","9643"
"36214","col","","14.083333","49.933334","Koneprusy C718 bei Karlstejn","","","2","Middle Pleistocene","","0.781","0.126","9643"
"36373","col","","11.300000","42.400002","Monte Argentario","","","1","Pleistocene","","2.588","0.0117","9754"
"36585","col","Yuanmou","100.940002","24.870001","Yuanmou formation, third member, lower part, Shangnabang","","Yuanmo formation","2","Pleistocene","","2.588","0.0117","9810"
"36729","col","","109.716667","28.316668","Luosixuan cave, bed 1, Jishou county","","","1","Late Pleistocene","","0.126","0.0117","9836"
"36730","col","","109.716667","28.316668","Luosixuan cave, bed 3, Jishou county","","","1","Late Pleistocene","","0.126","0.0117","9836"
"37024","col","'Ubeidiya","35.566666","32.683334","'Ubeidiya Formation site II-23","","Oubeidiyeh","1","Pleistocene","","2.588","0.0117","9913"
"37203","col","Lishi","109.250000","34.166668","Chenjiawo fauna collected in 1963","","","1","Pleistocene","","2.588","0.0117","9974"
"39252","col","","35.049999","32.716667","Tabun Cave Level E","","","1","Pleistocene","","2.588","0.0117","10604"
"39314","col","Dursunlu","31.913889","38.279167","Dursunlu","","","1","Pleistocene","","2.588","0.0117","10617"
"40341","col","","111.699997","23.000000","Shanbeiyan Cave, Luoding","","","1","Middle Pleistocene","","0.781","0.126","10880"
"40398","col","","44.116669","41.966667","Akhalkalaki 1","","Achalkalaki 1","1","Pleistocene","","2.588","0.0117","10898"
"40502","col","","16.261389","44.170555","Strmica","","","1","Pleistocene","","2.588","0.0117","10917"
"40808","col","","13.664444","45.768612","Slivia, Trieste, Northern Italy","","","1","Middle Pleistocene","","0.781","0.126","11028"
"42866","col","","-8.874444","31.869167","Djebel Irhoud, Ennouchi collection, 1960s","","Jebel Irhoud","2","Middle Pleistocene","","0.781","0.126","11378"
"42867","col","","12.250000","43.000000","Pietrafitta, Perugia","","","1","Early Pleistocene","","2.588","0.781","11380"
"43008","col","","28.964722","41.018612","Yarimburgaz Cave, Bosphorus","","","2","Middle Pleistocene","","0.781","0.126","11397"
"43016","col","","14.216667","40.549999","Quisisana-Certosa","","","2","Middle Pleistocene","","0.781","0.126","11400"
"43020","col","Unterer Travertin","11.380000","50.950001","Taubach, Unterer Travertin (Lower Travertine)","","","1","Early Pleistocene","","2.588","0.781","11725"
"43617","col","","0.150000","45.650002","Artenac 'Premiere macromammal Assemblage', Commune de Saint-Mary, Charente,","","Artenac-en-Charente","1","Middle Pleistocene","Late Pleistocene","0.781","0.0117","11457"
"43618","col","","0.150000","45.983334","Artenac 'Deuxieme macromammal Assemblage', Commune de Saint-Mary, Charente,","","","1","Middle Pleistocene","Late Pleistocene","0.781","0.0117","11457"
"43629","col","","0.150000","45.650002","Artenac 'Bed 8', Commune de Saint-Mary, Charente,","","Artenac-en-Charente","1","Late Pleistocene","","0.126","0.0117","11457"
"43631","col","","0.150000","45.650002","Artenac 'Bed 6 composite list', Commune de Saint-Mary, Charente,","","Artenac-en-Charente","2","Late Pleistocene","","0.126","0.0117","11457"
"43649","col","","11.250000","45.416668","Castello, Brecce di Soave, Verona, Northern Italy","","","2","Middle Pleistocene","","0.781","0.126","11465"
"43650","col","","11.250000","45.416668","Monte Tenda, Brecce di Soave, Verona, Northern Italy","","","1","Middle Pleistocene","","0.781","0.126","11465"
"43651","col","","11.250000","45.416668","Sentiero, Brecce di Soave, Verona, Northern Italy","","","2","Middle Pleistocene","","0.781","0.126","11465"
"43653","col","","11.250000","45.416668","Viatelle, Brecce di Soave, Verona, Northern Italy","","","1","Middle Pleistocene","","0.781","0.126","11465"
"43654","col","","11.250000","45.416668","Zoppega 1, Brecce di Soave, Verona, Northern Italy","","","1","Middle Pleistocene","","0.781","0.126","11465"
"43656","col","","11.033333","45.616669","Grotta del Cere, Verona, Northern Italy","","","2","Pleistocene","","2.588","0.0117","11465"
"43664","col","","11.100000","46.016666","Serbaro di Romagnano, Commune di Grezzana, Verona, Northern Italy","","","2","Middle Pleistocene","","0.781","0.126","11465"
"43699","col","","13.748611","45.736389","Bristie 1, Sgonico, Trieste, Northern Italy","","","1","Middle Pleistocene","","0.781","0.126","11465"
"43702","col","","13.729444","45.726391","Grotta Tilde, Gabrovizza, Trieste, Northern Italy","","Grotta dell'Alce,\r\nLosova Jama","1","Middle Pleistocene","Late Pleistocene","0.781","0.0117","11465"
"44091","col","","18.183332","40.383331","San Sidero 3, Maglie (Lecce), Salento, Puglia","","S.S.3","1","Pleistocene","","2.588","0.0117","11575"
"48858","col","","39.066666","27.066668","An Nafud desert, Locality 2","","An Nafoud","1","Pleistocene","","2.588","0.0117","13025"
"48889","col","","5.395000","43.686111","La grotte de l'Escale bed H, Saint-Esteve-Janson, Bouches du Rhone.","48890","L'Escale","1","Middle Pleistocene","","0.781","0.126","13053"
"48908","col","","5.395000","43.686111","La grotte de l'Escale bed D, Saint-Esteve-Janson, Bouches du Rhone.","48890","L'Escale","1","Middle Pleistocene","","0.781","0.126","13053"
"48910","col","","5.395000","43.686111","La grotte de l'Escale bed C, Saint-Esteve-Janson, Bouches du Rhone.","48890","L'Escale","1","Middle Pleistocene","","0.781","0.126","13053"
"49814","col","Cromer Forest Bed","1.731944","52.455276","Pakefield/Kessingland rootlet bed, Suffolk, England","","","1","Middle Pleistocene","","0.781","0.126","13378"
"49816","col","Cromer Forest Bed","1.246667","52.940556","West Runton Freshwater Bed, Norfolk, England","","WRFB","1","Middle Pleistocene","","0.781","0.126","13380"
"50196","col","","8.266667","50.066666","Mosbach 2 main fauna, bei Wiesbaden","","","2","Middle Pleistocene","","0.781","0.126","9643"
"50199","col","","8.816667","49.333332","Mauer bei Heidelberg","","","2","Middle Pleistocene","","0.781","0.126","9643"
"50249","col","","10.483333","51.916668","Sudmer Berg 2, bei Goslar","","","1","Middle Pleistocene","","0.781","0.126","9643"
"50258","col","","16.934723","48.139999","Hundsheim bei Hainburg","","","1","Middle Pleistocene","","0.781","0.126","9643"
"50259","col","","9.516667","48.533333","Heppenloch bei Urach","","","1","Middle Pleistocene","","0.781","0.126","9643"
"50342","col","","7.458889","43.765556","Vallonnet Cave bed 3 'faunal level', Roquebrune-Cap-Martin, Alpes Maritimes","","","3","Early Pleistocene","","2.588","0.781","13519"
"51100","col","","104.733330","25.627222","Panxian Dadong","","","2","Middle Pleistocene","","0.781","0.126","13623"
"55533","col","","4.053056","51.958057","Maasvlakte, Fauna III","","Meuse Levels, Beer canal","1","Holocene","","0.0117","0","14999"
"56733","col","","44.195000","41.329166","Dmanisi","","Dmanissi","1","Early Pleistocene","","2.588","0.781","25341"
"58809","col","","23.033333","42.849998","Slivnitsa","","","1","Pliocene","Pleistocene","5.333","0.0117","16685"
"65405","col","Silver Bluff","-80.292503","32.559166","Edisto Island","","","1","Pleistocene","","2.588","0.0117","18853"
"67660","col","","38.816666","35.150002","Nadaouiyeh Aïn Askar","","El Kowm","1","Middle Pleistocene","","0.781","0.126","19319"
"69723","col","","4.450000","36.033333","Mansourah","","","1","Early Pleistocene","","2.588","0.781","23392"
"70673","col","Tarija","-64.733330","-21.533333","Tarija","","","1","Early Pleistocene","","2.588","0.781","19694"
"70704","col","Nuapua","-63.066666","-20.750000","Nuapua 1, Chuquisaca, Bolivia","","","1","Middle Pleistocene","","0.781","0.126","19694"
"71060","col","","107.283333","47.766666","Nalaikha","","","1","Early Pleistocene","","2.588","0.781","23807"
"71277","col","","-100.716667","23.816668","Rancho La Amapola","","El Cedral","1","Late Pleistocene","","0.126","0.0117","23923"
"71303","col","Lujan","-57.125000","-34.066666","Lujan","","","1","Lujanian","","0.781","0.012","24010"
"71313","col","","-40.860832","-10.160000","Toca da Boa Vista","","","1","Late Pleistocene","Holocene","0.126","0","24122"
"71322","col","Nuapua","-63.066666","-20.866667","Nuapua 1","","","1","Ensenadan","","1.2","0.781","23916"
"71335","col","","-42.614445","-8.930833","Garrincho","","","1","Late Pleistocene","","0.126","0.0117","23910"
"71341","col","","-72.599998","-51.051388","Cueva del Mylodon, Level C","","","1","Late Pleistocene","","0.126","0.0117","24013"
"71345","col","","-99.815277","24.099443","San Josecito Cave","","","2","Late Pleistocene","","0.126","0.0117","24078"
"71346","col","","-80.500000","-4.700000","Talara Tar Seeps","","","1","Late Pleistocene","","0.126","0.0117","24009"
"71587","col","","-67.400002","-17.150000","Yaco, La Paz, Bolivia","","","1","Pleistocene","","2.588","0.0117","19694"
"73686","col","","120.000000","23.000000","Penghu Channel","","Between Penghu Island and Taiwan","1","Late Pleistocene","","0.126","0.0117","24700"
"74143","col","","-78.283333","38.849998","Limeton Lime Company Quarry","","","2","Pleistocene","","2.588","0.0117","24886"
"74292","col","","-80.599998","28.083332","Melbourne No. 2 Bed","","","1","Late Pleistocene","","0.126","0.0117","24947"
"76059","col","","-104.449997","32.366669","Dry Cave","","UTEP Locality 1, UTEP Locality 5, UTEP Locality 26","1","Late Pleistocene","","0.126","0.0117","25748"
"79683","col","","-97.683334","30.633333","Laubach Cave","","","1","Late Pleistocene","","0.126","0.0117","26776"
"79757","col","","-80.334724","32.479443","Edisto Beach","","","2","Rancholabrean","","0.3","0.012","26822"
"84183","col","","-85.339447","35.018890","Ruby Falls Cave","","","1","Pleistocene","","2.588","0.0117","28175"
"86852","col","","-86.343887","34.741390","Fern Cave","","","1","Pleistocene","","2.588","0.0117","29235"
"90036","col","","-5.341389","36.126667","Vangaurd Cave","","","1","Late Pleistocene","","0.126","0.0117","30172"
"90752","col","","-89.874443","37.752220","Crevice Cave","","","1","Pleistocene","","2.588","0.0117","30545"
"90753","col","","-89.891670","37.773609","Berome Moore Cave","","","1","Pleistocene","","2.588","0.0117","30545"
"90754","col","","-92.199997","37.833332","Bat Cave","","","1","Pleistocene","","2.588","0.0117","30545"
"92787","col","","110.217781","33.134167","Huanglong Cave","","Huanglongdong","1","Late Pleistocene","","0.126","0.0117","31309"
"92814","col","","-56.583332","-21.133333","Japones Cave","","","1","Pleistocene","Holocene","2.588","0","31331"
"93181","col","","-108.199997","44.983334","Natural Trap Cave (Wisconsinan)","","","1","Late Pleistocene","","0.126","0.0117","31486"
"93244","col","","-112.250000","32.466667","Ventana Cave Volcanic Debris Layer","","","1","Late Pleistocene","","0.126","0.0117","31520"
"93252","col","","-84.433334","35.533333","Craighead Caverns","","","1","Late Pleistocene","Holocene","0.126","0","31526"
"93277","col","","-105.683334","42.783333","Little Box Elder Cave","","LBEC","1","Late Pleistocene","","0.126","0.0117","31561"
"93372","col","","-85.966667","34.983334","Little Salt River Cave","","","1","Pleistocene","","2.588","0.0117","31594"
"93373","col","","-85.466667","35.933334","Saltpeter Cave","","","1","Pleistocene","","2.588","0.0117","31594"
"93521","col","","111.349998","-7.366667","Trinil","","","1","Early Pleistocene","","2.588","0.781","31625"
"93522","col","","111.660835","-7.411667","Kedung Brubus","","","1","Early Pleistocene","","2.588","0.781","31625"
"93523","col","","111.446388","-7.341667","Ngandong","","","1","Late Pleistocene","","0.126","0.0117","31625"
"93524","col","","111.029167","-8.137222","Punung","","","1","Late Pleistocene","","0.126","0.0117","31625"
"93828","col","","-0.958889","54.262222","Kirkdale Cave","","","1","Late Pleistocene","","0.126","0.0117","31900"
"94328","col","","14.658611","37.397778","Island fossil ungulates and their predators","","","1","Early Pleistocene","Late Pleistocene","2.588","0.0117","32076"
"96782","col","","-2.249444","50.081112","Victoria Cave","","","1","Late Pleistocene","","0.126","0.0117","33015"
"96973","col","","23.400000","-34.099998","Nelson Bay Cave, Holocene","","","1","Holocene","","0.0117","0","33119"
"101897","col","","141.434174","41.406113","Shiriya, Locality 2","","","1","Late Pleistocene","","0.126","0.0117","34644"
"101899","col","","141.429718","41.401943","Shiriya, Locality 3-2","","","1","Late Pleistocene","","0.126","0.0117","34644"
"104033","col","","-79.740280","37.502777","Arcadia Cave #1 & #2","","","1","Holocene","","0.0117","0","1461"
"104680","col","","-78.500557","38.667221","Luray Caverns","","","1","Late Pleistocene","Holocene","0.126","0","1461"
"109703","col","","4.053056","51.958057","Maasvlakte, Fauna II","","Meuse Levels, Beer canal","1","Late Pleistocene","","0.126","0.0117","36257"
"115184","col","","16.576942","-29.768505","Boegoeberg 1","","","1","Late Pleistocene","","0.126","0.0117","37303"
"115191","col","","18.452728","-32.387051","Diepkloof Rock Shelter","","","1","Pleistocene","","2.588","0.0117","37306"
"120834","col","","113.580559","24.674168","Lion Rock","","Lion Hill; Maba","1","Middle Pleistocene","","0.781","0.126","38591"
"133644","col","","-78.602997","-1.765000","Punín, Chalán","","Chalán","1","Pleistocene","","2.588","0.0117","43044"
"136498","col","","-41.056667","-10.931111","Toca dos Ossos","","","1","Late Pleistocene","Holocene","0.126","0","43594"
"141367","col","","-69.741943","-52.093613","Cueva de los Chingues","","","1","Late Pleistocene","","0.126","0.0117","45971"
"144976","col","","-81.091393","-4.689722","La Brea (Talara)","","","1","Late Pleistocene","","0.126","0.0117","46836"
"145508","col","","-77.446945","-8.316111","Celendín (~2500 m including Llaucán)","","","1","Pleistocene","","2.588","0.0117","46859"
"147609","col","","-48.583332","-24.583332","Megafauna Upper Ribeira","","","1","Pleistocene","Holocene","2.588","0","47532"
"147815","col","","-48.583332","-24.583332","Grutas Calcareas Iporanga","","","1","Pleistocene","Holocene","2.588","0","47558"
"152009","col","","-118.357002","34.063999","Rancho La Brea, Pit 13 (12.5 ft depth)","150336","","1","Rancholabrean","","0.3","0.012","48910"
"152265","col","Zanda","79.749168","31.666111","Zanda (ZD1001)","","","1","Late Miocene","Early Pliocene","11.608","3.6","48969"
"152266","col","Zanda","79.722992","31.701990","Zanda (ZD1208)","","","1","Late Miocene","Early Pliocene","11.608","3.6","48969"
"152267","col","Zanda","79.816032","31.509304","Zanda (ZD1223)","","","1","Late Miocene","Early Pliocene","11.608","3.6","48969"
"154722","col","","-80.400002","25.700001","Cutler Hammock","","UF DA004","2","Late Pleistocene","","0.126","0.0117","50316"
"154771","col","","-82.699997","27.799999","Seminole Field","","","1","Late Pleistocene","","0.126","0.0117","50335"
"154804","col","","-81.900002","27.170000","Peace River 3A","","UF DE015","1","Late Pleistocene","","0.126","0.0117","50371"
"154805","col","","-82.476387","29.407499","Devil's Den","","UF LV002","1","Late Pleistocene","","0.126","0.0117","2451"
"155393","col","","-122.281998","40.784000","Potter Creek Cave","","","1","Late Pleistocene","","0.126","0.0117","50711"
"161194","col","","-91.402779","31.559723","Natchez Ravines","","","1","Pleistocene","","2.588","0.0117","52516"
"183123","col","","23.166668","40.374722","Petralona Cave (Old & New Collection)","","Kokkinon Petron Cave","1","Pleistocene","","2.588","0.0117","61122"
"183152","col","","27.756001","-25.989000","Drimolen Main Quarry","","","2","Early Pleistocene","","2.588","0.781","61133"
